{"_id":{"$oid":"664aa86475acd9febec3451e"},"id":1,"name":"Drexel Univeristy: Healing Hurt People","state":"Pennsylvania","location":"Drexel Univeristy, Philadelphia, PA, 19102","phone":"267-359-2446","website":"https://www.drexel.edu/cnsj/healing-hurt-people/overview","services":["counseling","therapy","case management"]}
{"_id":{"$oid":"664aa86d75acd9febec3451f"},"id":2,"name":"Lutheran Settlement House","state":"Pennsylvania","location":"1340 Frankford Avenue, Philadelphia, PA 19125","phone":"215-426-8610","website":"https://www.lutheransettlement.org","services":["safety education","health education","skills & training"]}
{"_id":{"$oid":"664aa87475acd9febec34520"},"id":3,"name":"Women Against Abuse","state":"Pennsylvania","location":"100 S. Broad Street, Ste 1341, Philadelphia, PA 19102","phone":"215-386-1280","website":"https://www.womenagainstabuse.org","services":["temporary shelter","immediate safety","therapy","counseling","case management","childcare","advocacy","legal aid"]}
{"_id":{"$oid":"664aa87a75acd9febec34521"},"id":4,"name":"Southeast Asian Mutual Assistance Association Coalition, Inc. (SEAMAAC)","state":"Pennsylvania","location":"1902 S. 8th Street, Philadelphia, PA 19148","phone":"215-503-7194","website":"https://www.seamaac.org/hss/","services":["health education","safety education","financial education","case management","advocacy","legal aid"]}
